version,status,timestamp,latitude,longitude,altitude,roll,pitch,heading,latitude_sigma,longitude_sigma,altitude_sigma,roll_sigma,pitch_sigma,heading_sigma,a_sigma,b_sigma,c_sigma,quality,number_of_satellites,hdop
0,0,87753910,37.5775680677,126.897427535,15.8840026855,1.56234133244,-0.683137595654,-133.255081177,0,0,0,0,0,0,0,0,0,5,6,0
0,0,87764726,37.5775674657,126.89742831,15.8836231232,1.57500362396,-0.679814398289,-133.259613037,0,0,0,0,0,0,0,0,0,5,6,0
0,0,87773915,37.5775668611,126.897429088,15.8832616806,1.58778059483,-0.674142122269,-133.265396118,0,0,0,0,0,0,0,0,0,5,6,0
0,0,87783972,37.5775662591,126.89742986,15.8830423355,1.59299457073,-0.662396490574,-133.270492554,0,0,0,0,0,0,0,0,0,5,6,0
0,0,87793866,37.5775656576,126.897430633,15.8824386597,1.5963177681,-0.655922055244,-133.273590088,0,0,0,0,0,0,0,0,0,5,6,0
0,0,87803909,37.5775650554,126.897431407,15.8820695877,1.59803652763,-0.644921302795,-133.277664185,0,0,0,0,0,0,0,0,0,5,6,0
0,0,87813841,37.5775644606,126.897432172,15.8813076019,1.60972487926,-0.6300817132,-133.281097412,0,0,0,0,0,0,0,0,0,5,6,0
0,0,87824687,37.5775638609,126.897432941,15.8806257248,1.60932385921,-0.6163880229,-133.286773682,0,0,0,0,0,0,0,0,0,5,6,0
0,0,87833932,37.5775632591,126.897433713,15.8800153732,1.61367833614,-0.597766876221,-133.283737183,0,0,0,0,0,0,0,0,0,5,6,0
0,0,87843947,37.5775626653,126.897434477,15.8791456223,1.61425125599,-0.574619352818,-133.285903931,0,0,0,0,0,0,0,0,0,5,6,0
0,0,87854825,37.5775620664,126.897435244,15.8783502579,1.61539721489,-0.553649127483,-133.286773682,0,0,0,0,0,0,0,0,0,5,6,0
0,0,87863942,37.577561467,126.897436014,15.8776674271,1.61957979202,-0.53674685955,-133.287979126,0,0,0,0,0,0,0,0,0,5,6,0
0,0,87875579,37.5775608746,126.897436775,15.8767623901,1.61516797543,-0.513713955879,-133.28918457,0,0,0,0,0,0,0,0,0,5,6,0
0,0,87883939,37.5775602779,126.897437541,15.8759765625,1.61516797543,-0.487930864096,-133.287750244,0,0,0,0,0,0,0,0,0,5,6,0
0,0,87893908,37.5775596791,126.897438309,15.8751363754,1.61046981812,-0.464325010777,-133.288146973,0,0,0,0,0,0,0,0,0,5,6,0
0,0,87903884,37.5775590882,126.897439069,15.8742008209,1.60588610172,-0.440203487873,-133.285858154,0,0,0,0,0,0,0,0,0,5,6,0
0,0,87914102,37.5775584929,126.897439833,15.8734331131,1.59643232822,-0.420493721962,-133.283843994,0,0,0,0,0,0,0,0,0,5,6,0
0,0,87923875,37.5775578966,126.897440598,15.8727216721,1.5907599926,-0.397288948298,-133.278457642,0,0,0,0,0,0,0,0,0,5,6,0
0,0,87933829,37.5775573083,126.897441357,15.8719234467,1.59832310677,-0.372365266085,-133.275085449,0,0,0,0,0,0,0,0,0,5,6,0
0,0,87943896,37.5775567153,126.89744212,15.8713293076,1.59551560879,-0.350363701582,-133.272674561,0,0,0,0,0,0,0,0,0,5,6,0
0,0,87953934,37.5775561202,126.897442883,15.8705768585,1.59666144848,-0.325554609299,-133.270446777,0,0,0,0,0,0,0,0,0,5,6,0
0,0,87963805,37.577555543,126.897443639,15.870054245,1.60078680515,-0.306245952845,-133.265686035,0,0,0,0,0,0,0,0,0,5,6,0
0,0,87973864,37.5775549513,126.8974444,15.8695249557,1.59797930717,-0.285504877567,-133.25944519,0,0,0,0,0,0,0,0,0,5,6,0
0,0,87983916,37.5775543587,126.897445162,15.8689393997,1.60514128208,-0.268029659986,-133.255371094,0,0,0,0,0,0,0,0,0,5,6,0
0,0,87995005,37.5775537825,126.897445916,15.8685054779,1.6075476408,-0.254737049341,-133.251358032,0,0,0,0,0,0,0,0,0,5,6,0
0,0,88003851,37.5775531927,126.897446675,15.8680677414,1.61299073696,-0.236688867211,-133.244140625,0,0,0,0,0,0,0,0,0,5,6,0
0,0,88013864,37.5775526014,126.897447436,15.8675374985,1.61688685417,-0.21944282949,-133.239379883,0,0,0,0,0,0,0,0,0,5,6,0
0,0,88023993,37.5775520261,126.897448188,15.8672084808,1.62089765072,-0.200821712613,-133.231658936,0,0,0,0,0,0,0,0,0,5,6,0
0,0,88033838,37.5775514377,126.897448945,15.8669204712,1.62582504749,-0.190565764904,-133.23085022,0,0,0,0,0,0,0,0,0,5,6,0
0,0,88043977,37.5775508481,126.897449703,15.8665561676,1.63327348232,-0.177846103907,-133.215667725,0,0,0,0,0,0,0,0,0,5,6,0
0,0,88053836,37.5775502739,126.897450454,15.8664073944,1.64627957344,-0.169423624873,-133.208389282,0,0,0,0,0,0,0,0,0,5,6,0
0,0,88063924,37.5775496873,126.897451208,15.8663244247,1.6466807127,-0.16100114584,-133.200653076,0,0,0,0,0,0,0,0,0,5,6,0
0,0,88074925,37.5775490989,126.897451965,15.8660821915,1.64845693111,-0.151260852814,-133.190628052,0,0,0,0,0,0,0,0,0,5,6,0
0,0,88083874,37.5775485256,126.897452714,15.866104126,1.65687930584,-0.14730745554,-133.17779541,0,0,0,0,0,0,0,0,0,5,6,0
0,0,88094697,37.5775479403,126.897453467,15.866232872,1.65882742405,-0.145130202174,-133.16506958,0,0,0,0,0,0,0,0,0,5,6,0
0,0,88104865,37.5775473541,126.897454221,15.8661956787,1.66633319855,-0.143239453435,-133.15562439,0,0,0,0,0,0,0,0,0,5,6,0
0,0,88115129,37.5775467794,126.897454972,15.8667325974,1.66661965847,-0.146734490991,-133.14364624,0,0,0,0,0,0,0,0,0,5,6,0
0,0,88123873,37.5775461961,126.897455723,15.8671636581,1.67246377468,-0.147020965815,-133.131729126,0,0,0,0,0,0,0,0,0,5,6,0
0,0,88133966,37.5775456113,126.897456475,15.8672561646,1.68718886375,-0.151490047574,-133.120437622,0,0,0,0,0,0,0,0,0,5,6,0
0,0,88145346,37.5775450374,126.897457219,15.8680896759,1.68695962429,-0.159282267094,-133.104919434,0,0,0,0,0,0,0,0,0,5,6,0
0,0,88154923,37.5775444564,126.897457969,15.8685903549,1.69859063625,-0.17022575438,-133.095352173,0,0,0,0,0,0,0,0,0,5,6,0
0,0,88163974,37.5775438736,126.89745872,15.8690061569,1.69498109818,-0.185466438532,-133.077819824,0,0,0,0,0,0,0,0,0,5,6,0
0,0,88173917,37.5775433028,126.897459468,15.8705072403,1.69584047794,-0.195493206382,-133.066925049,0,0,0,0,0,0,0,0,0,5,6,0
0,0,88183876,37.5775427236,126.897460216,15.8711004257,1.69996583462,-0.205004304647,-133.048248291,0,0,0,0,0,0,0,0,0,5,6,0
0,0,88194927,37.5775421429,126.897460966,15.8716392517,1.70792984962,-0.215833202004,-133.036102295,0,0,0,0,0,0,0,0,0,5,6,0
0,0,88203803,37.5775415737,126.897461713,15.8731250763,1.71331572533,-0.227521538734,-133.019195557,0,0,0,0,0,0,0,0,0,5,6,0
0,0,88214733,37.5775409968,126.897462461,15.8737335205,1.71606588364,-0.243335172534,-133.006942749,0,0,0,0,0,0,0,0,0,5,6,0
0,0,88223905,37.577540418,126.897463209,15.8743391037,1.72488939762,-0.257429927588,-132.991348267,0,0,0,0,0,0,0,0,0,5,6,0
0,0,88233800,37.5775398508,126.897463955,15.8758049011,1.73061907291,-0.271352797747,-132.975708008,0,0,0,0,0,0,0,0,0,5,6,0
0,0,88244928,37.5775392759,126.897464701,15.8764228821,1.73113465309,-0.28636431694,-132.959732056,0,0,0,0,0,0,0,0,0,5,6,0
0,0,88253869,37.5775386993,126.897465449,15.8770227432,1.73692154884,-0.300802856684,-132.943511963,0,0,0,0,0,0,0,0,0,5,6,0
0,0,88263858,37.5775381334,126.897466194,15.878411293,1.74047386646,-0.314324647188,-132.928894043,0,0,0,0,0,0,0,0,0,5,6,0
0,0,88275172,37.5775375604,126.89746694,15.8789339066,1.75015687943,-0.329679906368,-132.912002563,0,0,0,0,0,0,0,0,0,5,6,0
0,0,88283854,37.577536986,126.897467685,15.8795433044,1.74752128124,-0.34692594409,-132.898757935,0,0,0,0,0,0,0,0,0,5,6,0
0,0,88296780,37.577536424,126.897468426,15.8798542023,1.74649000168,-0.362453103065,-132.8800354,0,0,0,0,0,0,0,0,0,5,6,0
0,0,88304003,37.5775358532,126.897469169,15.8803806305,1.75794911385,-0.372365266085,-132.865875244,0,0,0,0,0,0,0,0,0,5,6,0
0,0,88314188,37.5775352805,126.897469915,15.8808679581,1.75760531425,-0.38399630785,-132.850067139,0,0,0,0,0,0,0,0,0,5,6,0
0,0,88326056,37.5775347199,126.897470654,15.8810949326,1.76327764988,-0.396429508924,-132.83430481,0,0,0,0,0,0,0,0,0,5,6,0
0,0,88334107,37.5775341508,126.897471397,15.8814716339,1.76385056973,-0.407602161169,-132.819061279,0,0,0,0,0,0,0,0,0,5,6,0
0,0,88345079,37.5775335805,126.89747214,15.8819770813,1.76127231121,-0.425306558609,-132.804748535,0,0,0,0,0,0,0,0,0,5,6,0
0,0,88354247,37.5775330217,126.897472878,15.8821125031,1.75966799259,-0.437224090099,-132.788070679,0,0,0,0,0,0,0,0,0,5,6,0
0,0,88364427,37.5775324551,126.897473618,15.882393837,1.75645947456,-0.447651922703,-132.768585205,0,0,0,0,0,0,0,0,0,5,6,0
0,0,88373999,37.5775318863,126.897474361,15.8827285767,1.75416755676,-0.457735985518,-132.755813599,0,0,0,0,0,0,0,0,0,5,6,0
0,0,88383870,37.5775313293,126.897475098,15.8827409744,1.74603164196,-0.462949901819,-132.73626709,0,0,0,0,0,0,0,0,0,5,6,0
0,0,88394046,37.5775307649,126.897475837,15.8828964233,1.73583292961,-0.468965947628,-132.725494385,0,0,0,0,0,0,0,0,0,5,6,0
0,0,88403899,37.5775301989,126.897476578,15.8831558228,1.72912931442,-0.471945345402,-132.709747314,0,0,0,0,0,0,0,0,0,5,6,0
0,0,88414995,37.5775296399,126.897477317,15.8839435577,1.71085202694,-0.479451090097,-132.691177368,0,0,0,0,0,0,0,0,0,5,6,0
0,0,88423929,37.5775290784,126.897478055,15.8840484619,1.70947682858,-0.484722286463,-132.67616272,0,0,0,0,0,0,0,0,0,5,6,0
0,0,88433813,37.5775285144,126.897478794,15.8841438293,1.70346081257,-0.483690977097,-132.660415649,0,0,0,0,0,0,0,0,0,5,6,0
0,0,88446563,37.5775279579,126.897479532,15.8847885132,1.70689857006,-0.482602357864,-132.650039673,0,0,0,0,0,0,0,0,0,5,6,0
0,0,88454043,37.5775273992,126.897480269,15.8847360611,1.69939279556,-0.48443582654,-132.634109497,0,0,0,0,0,0,0,0,0,5,6,0
0,0,88463899,37.5775268378,126.897481006,15.8848733902,1.68833470345,-0.484206646681,-132.617721558,0,0,0,0,0,0,0,0,0,5,6,0
0,0,88473773,37.577526284,126.897481737,15.8844137192,1.6910276413,-0.480482399464,-132.606948853,0,0,0,0,0,0,0,0,0,5,6,0
0,0,88483828,37.5775257272,126.897482471,15.8843822479,1.68455326557,-0.474007993937,-132.591995239,0,0,0,0,0,0,0,0,0,5,6,0
0,0,88493778,37.5775251689,126.897483208,15.8842849731,1.69360589981,-0.464554190636,-132.578536987,0,0,0,0,0,0,0,0,0,5,6,0
0,0,88503791,37.5775246173,126.897483938,15.883767128,1.69097030163,-0.458480834961,-132.567367554,0,0,0,0,0,0,0,0,0,5,6,0
0,0,88514043,37.5775240633,126.89748467,15.8836154938,1.6835218668,-0.453897178173,-132.55418396,0,0,0,0,0,0,0,0,0,5,6,0
0,0,88523802,37.577523507,126.897485404,15.8835420609,1.67825067043,-0.444386065006,-132.540267944,0,0,0,0,0,0,0,0,0,5,6,0
0,0,88534869,37.5775229576,126.897486132,15.8829851151,1.67784965038,-0.435161441565,-132.529266357,0,0,0,0,0,0,0,0,0,5,6,0
0,0,88543785,37.5775224059,126.897486863,15.8827810287,1.68002688885,-0.422900140285,-132.518722534,0,0,0,0,0,0,0,0,0,5,6,0
0,0,88554414,37.5775218522,126.897487595,15.8826150894,1.67939662933,-0.409894019365,-132.504623413,0,0,0,0,0,0,0,0,0,5,6,0
0,0,88563942,37.5775213051,126.897488322,15.8820161819,1.68489694595,-0.400726675987,-132.49786377,0,0,0,0,0,0,0,0,0,5,6,0
0,0,88573863,37.5775207559,126.89748905,15.8817777634,1.69309031963,-0.391330182552,-132.491455078,0,0,0,0,0,0,0,0,0,5,6,0
0,0,88583881,37.5775202042,126.89748978,15.8815917969,1.68529808521,-0.38222014904,-132.478897095,0,0,0,0,0,0,0,0,0,5,6,0
0,0,88593761,37.577519658,126.897490512,15.881562233,1.68856394291,-0.369958847761,-132.470596313,0,0,0,0,0,0,0,0,0,5,6,0
0,0,88604319,37.5775191106,126.897491237,15.8812770844,1.69629883766,-0.35317119956,-132.461364746,0,0,0,0,0,0,0,0,0,5,6,0
0,0,88614140,37.5775185617,126.897491965,15.8810958862,1.69750201702,-0.337529450655,-132.454040527,0,0,0,0,0,0,0,0,0,5,6,0
0,0,88624047,37.5775180185,126.897492691,15.8811588287,1.69240272045,-0.323377370834,-132.448760986,0,0,0,0,0,0,0,0,0,5,6,0
0,0,88634085,37.5775174731,126.897493414,15.8808917999,1.68896496296,-0.314725726843,-132.439025879,0,0,0,0,0,0,0,0,0,5,6,0
0,0,88645258,37.5775169263,126.897494139,15.8806257248,1.68690228462,-0.306303232908,-132.430206299,0,0,0,0,0,0,0,0,0,5,6,0
0,0,88653987,37.577516385,126.897494862,15.8806743622,1.67131793499,-0.299427747726,-132.422927856,0,0,0,0,0,0,0,0,0,5,6,0
0,0,88664069,37.5775158421,126.897495582,15.8804388046,1.67143249512,-0.291234433651,-132.414840698,0,0,0,0,0,0,0,0,0,5,6,0
0,0,88674709,37.5775152974,126.897496306,15.8801422119,1.67807877064,-0.279603391886,-132.407455444,0,0,0,0,0,0,0,0,0,5,6,0
0,0,88683884,37.5775147551,126.897497027,15.8797740936,1.66724991798,-0.270607978106,-132.404251099,0,0,0,0,0,0,0,0,0,5,6,0
0,0,88695229,37.5775142148,126.897497745,15.8796224594,1.65510320663,-0.262242794037,-132.396286011,0,0,0,0,0,0,0,0,0,5,6,0
0,0,88704846,37.5775136723,126.897498465,15.8793992996,1.65051949024,-0.256169438362,-132.390213013,0,0,0,0,0,0,0,0,0,5,6,0
0,0,88715559,37.5775131321,126.897499184,15.8791532516,1.64198243618,-0.257372647524,-132.385787964,0,0,0,0,0,0,0,0,0,5,6,0
0,0,88724013,37.5775125943,126.8974999,15.8792066574,1.63676857948,-0.262643843889,-132.377716064,0,0,0,0,0,0,0,0,0,5,6,0
0,0,88733890,37.5775120543,126.897500619,15.8790302277,1.64043545723,-0.26252925396,-132.370788574,0,0,0,0,0,0,0,0,0,5,6,0
0,0,88743983,37.577511517,126.897501335,15.8789806366,1.65527510643,-0.264190852642,-132.366195679,0,0,0,0,0,0,0,0,0,5,6,0
0,0,88754145,37.5775109817,126.897502048,15.8791589737,1.66163492203,-0.271410107613,-132.36076355,0,0,0,0,0,0,0,0,0,5,6,0
0,0,88763873,37.5775104442,126.897502763,15.8792047501,1.67790687084,-0.280348241329,-132.355545044,0,0,0,0,0,0,0,0,0,5,6,0
0,0,88773789,37.5775099127,126.897503479,15.8799095154,1.69142866135,-0.291520923376,-132.350448608,0,0,0,0,0,0,0,0,0,5,6,0
0,0,88783931,37.5775093795,126.897504189,15.8802185059,1.70168459415,-0.304698944092,-132.345001221,0,0,0,0,0,0,0,0,0,5,6,0
0,0,88793853,37.5775088447,126.897504902,15.8803901672,1.72328519821,-0.320684492588,-132.339614868,0,0,0,0,0,0,0,0,0,5,6,0
0,0,88803774,37.5775083151,126.897505614,15.8812360764,1.73623394966,-0.334206283092,-132.332855225,0,0,0,0,0,0,0,0,0,5,6,0
0,0,88814033,37.5775077838,126.897506321,15.8816804886,1.75812101364,-0.352025270462,-132.322891235,0,0,0,0,0,0,0,0,0,5,6,0
0,0,88825528,37.577507251,126.89750703,15.8820209503,1.77084064484,-0.372594445944,-132.316238403,0,0,0,0,0,0,0,0,0,5,6,0
0,0,88833769,37.5775067234,126.897507738,15.8830156326,1.77983605862,-0.400841265917,-132.311080933,0,0,0,0,0,0,0,0,0,5,6,0
0,0,88843967,37.5775061944,126.897508442,15.8836774826,1.79839992523,-0.426108717918,-132.303283691,0,0,0,0,0,0,0,0,0,5,6,0
0,0,88853917,37.5775056633,126.897509148,15.8841085434,1.81203627586,-0.452636659145,-132.293197632,0,0,0,0,0,0,0,0,0,5,6,0
0,0,88863833,37.5775051377,126.897509854,15.8851537704,1.84102797508,-0.481284558773,-132.283401489,0,0,0,0,0,0,0,0,0,5,6,0
0,0,88873789,37.5775046106,126.897510554,15.885725975,1.86343061924,-0.51348477602,-132.270523071,0,0,0,0,0,0,0,0,0,5,6,0
0,0,88883929,37.5775040819,126.897511257,15.8863887787,1.87609302998,-0.545341253281,-132.261871338,0,0,0,0,0,0,0,0,0,5,6,0
0,0,88893949,37.5775035584,126.897511958,15.8873968124,1.89179205894,-0.574963152409,-132.248916626,0,0,0,0,0,0,0,0,0,5,6,0
0,0,88906325,37.5775030338,126.897512655,15.8880252838,1.90657436848,-0.599600315094,-132.238723755,0,0,0,0,0,0,0,0,0,5,6,0
0,0,88914210,37.5775025072,126.897513355,15.8885917664,1.93356072903,-0.628878474236,-132.221237183,0,0,0,0,0,0,0,0,0,5,6,0
0,0,88925414,37.5775019862,126.897514054,15.8896036148,1.94295716286,-0.661995410919,-132.208007813,0,0,0,0,0,0,0,0,0,5,6,0
0,0,88934079,37.5775014642,126.897514747,15.8902378082,1.9689694643,-0.692362189293,-132.192932129,0,0,0,0,0,0,0,0,0,5,6,0
0,0,88946228,37.5775009405,126.897515444,15.8908500671,1.99383580685,-0.726682364941,-132.177642822,0,0,0,0,0,0,0,0,0,5,6,0
0,0,88954227,37.5775004221,126.897516139,15.8918962479,2.01159763336,-0.76054418087,-132.164291382,0,0,0,0,0,0,0,0,0,5,6,0
0,0,88964074,37.5774999033,126.897516831,15.892572403,2.03606271744,-0.792744398117,-132.149276733,0,0,0,0,0,0,0,0,0,5,6,0
0,0,88974048,37.5774993818,126.897517524,15.8931541443,2.0524494648,-0.826950013638,-132.133743286,0,0,0,0,0,0,0,0,0,5,6,0
0,0,88984031,37.5774988662,126.897518217,15.8940887451,2.08086800575,-0.85817617178,-132.117141724,0,0,0,0,0,0,0,0,0,5,6,0
0,0,88993988,37.5774983505,126.897518905,15.8945665359,2.09845781326,-0.891407728195,-132.103668213,0,0,0,0,0,0,0,0,0,5,6,0
0,0,89014631,37.5774973201,126.897520286,15.8960781097,2.1204020977,-0.948302447796,-132.066650391,0,0,0,0,0,0,0,0,0,5,6,0
0,0,89023862,37.5774968074,126.897520972,15.8965015411,2.13300728798,-0.971965610981,-132.051986694,0,0,0,0,0,0,0,0,0,5,6,0
0,0,89034794,37.5774962923,126.897521659,15.8969478607,2.14314866066,-0.997634112835,-132.034164429,0,0,0,0,0,0,0,0,0,5,6,0
0,0,89043888,37.577495783,126.897522348,15.8975954056,2.15300345421,-1.02416205406,-132.016586304,0,0,0,0,0,0,0,0,0,5,6,0
0,0,89053903,37.5774952733,126.897523031,15.8977003098,2.16566586494,-1.04501771927,-132.001052856,0,0,0,0,0,0,0,0,0,5,6,0
0,0,89063890,37.5774947615,126.897523716,15.8980255127,2.18262553215,-1.06633174419,-131.984329224,0,0,0,0,0,0,0,0,0,5,6,0
0,0,89074818,37.5774942444,126.897524406,15.8976898193,2.18652153015,-1.08094215393,-131.968399048,0,0,0,0,0,0,0,0,0,5,6,0
0,0,89083926,37.5774937379,126.897525087,15.8974313736,2.20353841782,-1.09056782722,-131.954818726,0,0,0,0,0,0,0,0,0,5,6,0
0,0,89093863,37.577493229,126.897525769,15.8975105286,2.2113878727,-1.09549534321,-131.936828613,0,0,0,0,0,0,0,0,0,5,6,0
0,0,89103900,37.577492715,126.897526457,15.896812439,2.21665906906,-1.10111033916,-131.919006348,0,0,0,0,0,0,0,0,0,5,6,0
0,0,89114618,37.5774922113,126.897527135,15.8963823318,2.22576904297,-1.10122489929,-131.903823853,0,0,0,0,0,0,0,0,0,5,6,0
0,0,89123909,37.5774917056,126.897527815,15.8961296082,2.23218631744,-1.10076653957,-131.886123657,0,0,0,0,0,0,0,0,0,5,6,0
0,0,89133883,37.5774911949,126.897528493,15.8953523636,2.23676991463,-1.09606826305,-131.868591309,0,0,0,0,0,0,0,0,0,5,6,0
0,0,89147221,37.5774906946,126.897529168,15.8947267532,2.23155593872,-1.09114086628,-131.851226807,0,0,0,0,0,0,0,0,0,5,6,0
0,0,89153839,37.5774901914,126.897529845,15.8942642212,2.23745751381,-1.0827755928,-131.831222534,0,0,0,0,0,0,0,0,0,5,6,0
0,0,89163901,37.5774896844,126.897530521,15.8932857513,2.23997855186,-1.07612931728,-131.815933228,0,0,0,0,0,0,0,0,0,5,6,0
0,0,89173947,37.5774891871,126.897531193,15.8924732208,2.23258733749,-1.06587338448,-131.798233032,0,0,0,0,0,0,0,0,0,5,6,0
0,0,89184779,37.5774886874,126.897531867,15.8918418884,2.23018097878,-1.05808115005,-131.779495239,0,0,0,0,0,0,0,0,0,5,6,0
0,0,89193845,37.5774881939,126.897532539,15.8912172318,2.23464989662,-1.04072058201,-131.765274048,0,0,0,0,0,0,0,0,0,5,6,0
0,0,89203817,37.5774877004,126.89753321,15.8902330399,2.23115491867,-1.01745843887,-131.748214722,0,0,0,0,0,0,0,0,0,5,6,0
0,0,89214639,37.5774872036,126.897533881,15.8894004822,2.22382116318,-0.999410271645,-131.729705811,0,0,0,0,0,0,0,0,0,5,6,0
0,0,89223835,37.5774867135,126.897534551,15.8886117935,2.21877908707,-0.986060380936,-131.714172363,0,0,0,0,0,0,0,0,0,5,6,0
0,0,89233810,37.5774862231,126.897535219,15.8875799179,2.20892429352,-0.965204715729,-131.698822021,0,0,0,0,0,0,0,0,0,5,6,0
0,0,89246991,37.5774857303,126.897535889,15.8866291046,2.20199131966,-0.946469008923,-131.684143066,0,0,0,0,0,0,0,0,0,5,6,0
0,0,89253810,37.5774852434,126.897536556,15.8858203888,2.19746494293,-0.924410104752,-131.669021606,0,0,0,0,0,0,0,0,0,5,6,0
0,0,89263817,37.5774847568,126.897537222,15.8847513199,2.19998598099,-0.899658322334,-131.656646729,0,0,0,0,0,0,0,0,0,5,6,0
0,0,89273883,37.5774842669,126.897537889,15.8836917877,2.19935584068,-0.876281678677,-131.64175415,0,0,0,0,0,0,0,0,0,5,6,0
0,0,89283785,37.5774837832,126.897538554,15.8827791214,2.18623495102,-0.854967594147,-131.625701904,0,0,0,0,0,0,0,0,0,5,6,0
0,0,89293879,37.5774832993,126.897539217,15.8816299438,2.17649483681,-0.837664306164,-131.614135742,0,0,0,0,0,0,0,0,0,5,6,0
0,0,89304362,37.577482813,126.897539881,15.880563736,2.1735727787,-0.814860582352,-131.596542358,0,0,0,0,0,0,0,0,0,5,6,0
0,0,89314012,37.5774823277,126.897540546,15.8794260025,2.17311429977,-0.79303085804,-131.58291626,0,0,0,0,0,0,0,0,0,5,6,0
0,0,89323879,37.5774818472,126.897541206,15.8783016205,2.17506241798,-0.772117912769,-131.570877075,0,0,0,0,0,0,0,0,0,5,6,0
0,0,89333782,37.5774813634,126.897541868,15.8771858215,2.1712808609,-0.751147687435,-131.557418823,0,0,0,0,0,0,0,0,0,5,6,0
0,0,89344701,37.5774808826,126.89754253,15.8761234283,2.16853070259,-0.730864942074,-131.54296875,0,0,0,0,0,0,0,0,0,5,6,0
0,0,89353953,37.5774804047,126.897543187,15.8751249313,2.16285848618,-0.713160574436,-131.530776978,0,0,0,0,0,0,0,0,0,5,6,0
0,0,89363821,37.5774799246,126.897543846,15.8740663528,2.15604019165,-0.699352264404,-131.515762329,0,0,0,0,0,0,0,0,0,5,6,0
0,0,89373797,37.5774794443,126.897544502,15.8732852936,2.15758705139,-0.682048976421,-131.502471924,0,0,0,0,0,0,0,0,0,5,6,0
0,0,89384200,37.5774789695,126.897545155,15.8724470139,2.14973759651,-0.668985545635,-131.490097046,0,0,0,0,0,0,0,0,0,5,6,0
0,0,89393791,37.5774784921,126.897545812,15.8714475632,2.14612793922,-0.660161972046,-131.47845459,0,0,0,0,0,0,0,0,0,5,6,0
0,0,89403766,37.5774780149,126.897546464,15.8707714081,2.14034104347,-0.653515636921,-131.466201782,0,0,0,0,0,0,0,0,0,5,6,0
0,0,89413862,37.5774775429,126.897547115,15.8700742722,2.12630367279,-0.646812081337,-131.448379517,0,0,0,0,0,0,0,0,0,5,6,0
0,0,89423888,37.5774770688,126.897547768,15.8692569733,2.12309503555,-0.645150482655,-131.438644409,0,0,0,0,0,0,0,0,0,5,6,0
0,0,89433762,37.5774765946,126.897548417,15.8687572479,2.1189699173,-0.640853285789,-131.423461914,0,0,0,0,0,0,0,0,0,5,6,0
0,0,89443877,37.5774761256,126.897549065,15.8682289124,2.11908435822,-0.638389587402,-131.412689209,0,0,0,0,0,0,0,0,0,5,6,0
0,0,89454174,37.5774756541,126.897549715,15.8675394058,2.11432886124,-0.63827496767,-131.398925781,0,0,0,0,0,0,0,0,0,5,6,0
0,0,89464580,37.577475183,126.897550361,15.867181778,2.10636472702,-0.64062410593,-131.386322021,0,0,0,0,0,0,0,0,0,5,6,0
0,0,89474000,37.577474717,126.897551005,15.8667926788,2.09645247459,-0.64767152071,-131.375152588,0,0,0,0,0,0,0,0,0,5,6,0
0,0,89484600,37.5774742485,126.897551652,15.8663034439,2.08419132233,-0.654145896435,-131.361236572,0,0,0,0,0,0,0,0,0,5,6,0
0,0,89496526,37.5774737825,126.897552301,15.8663082123,2.07565426826,-0.66136521101,-131.348800659,0,0,0,0,0,0,0,0,0,5,6,0
0,0,89503965,37.5774733194,126.897552942,15.8660850525,2.05892372131,-0.66589152813,-131.340835571,0,0,0,0,0,0,0,0,0,5,6,0
0,0,89514262,37.5774728541,126.897553586,15.8656797409,2.05267858505,-0.669386565685,-131.330810547,0,0,0,0,0,0,0,0,0,5,6,0
0,0,89523914,37.5774723911,126.897554232,15.8657503128,2.03829741478,-0.684226214886,-131.316604614,0,0,0,0,0,0,0,0,0,5,6,0
0,0,89533993,37.5774719311,126.897554871,15.8655977249,2.01457691193,-0.698091804981,-131.310638428,0,0,0,0,0,0,0,0,0,5,6,0
0,0,89545967,37.577471469,126.897555511,15.8654022217,2.00042486191,-0.719062030315,-131.29901123,0,0,0,0,0,0,0,0,0,5,6,0
0,0,89553905,37.5774710095,126.897556154,15.865650177,1.97607409954,-0.74117821455,-131.290649414,0,0,0,0,0,0,0,0,0,5,6,0
0,0,89563879,37.577470553,126.897556789,15.8657245636,1.96673488617,-0.762205779552,-131.281646729,0,0,0,0,0,0,0,0,0,5,6,0
0,0,89573895,37.5774700938,126.897557428,15.8655347824,1.96175014973,-0.778535068035,-131.272598267,0,0,0,0,0,0,0,0,0,5,6,0
0,0,89583835,37.5774696379,126.897558068,15.8658638,1.95762491226,-0.798645853996,-131.26852417,0,0,0,0,0,0,0,0,0,5,6,0
0,0,89593860,37.5774691851,126.8975587,15.8659410477,1.94261336327,-0.820189058781,-131.261657715,0,0,0,0,0,0,0,0,0,5,6,0
0,0,89605607,37.577468729,126.897559334,15.8660373688,1.92639875412,-0.847060799599,-131.256958008,0,0,0,0,0,0,0,0,0,5,6,0
0,0,89613865,37.5774682861,126.897559961,15.8663730621,1.91774702072,-0.871411502361,-131.250137329,0,0,0,0,0,0,0,0,0,5,6,0
0,0,89624006,37.5774678365,126.897560589,15.8666162491,1.91132986546,-0.89805406332,-131.247497559,0,0,0,0,0,0,0,0,0,5,6,0
0,0,89634781,37.5774673842,126.897561221,15.8667001724,1.91121530533,-0.923722565174,-131.241424561,0,0,0,0,0,0,0,0,0,5,6,0
0,0,89643852,37.5774669443,126.897561844,15.8671169281,1.90663170815,-0.952656924725,-131.236724854,0,0,0,0,0,0,0,0,0,5,6,0
0,0,89653987,37.577466498,126.897562469,15.8673667908,1.9089807272,-0.980502665043,-131.234375,0,0,0,0,0,0,0,0,0,5,6,0
0,0,89663994,37.5774660489,126.897563096,15.8675632477,1.91161644459,-1.01195800304,-131.232772827,0,0,0,0,0,0,0,0,0,5,6,0
0,0,89673858,37.5774656032,126.89756372,15.8683195114,1.90548574924,-1.03951728344,-131.230651855,0,0,0,0,0,0,0,0,0,5,6,0
0,0,89683879,37.5774651595,126.89756434,15.8684310913,1.90823590755,-1.06638908386,-131.230316162,0,0,0,0,0,0,0,0,0,5,6,0
0,0,89693862,37.5774647139,126.897564963,15.8687067032,1.90428256989,-1.09589636326,-131.227676392,0,0,0,0,0,0,0,0,0,5,6,0
0,0,89703849,37.577464271,126.897565583,15.8693361282,1.89551627636,-1.12082004547,-131.226303101,0,0,0,0,0,0,0,0,0,5,6,0
0,0,89713988,37.5774638304,126.897566198,15.869433403,1.89305257797,-1.14878034592,-131.225097656,0,0,0,0,0,0,0,0,0,5,6,0
0,0,89723872,37.5774633873,126.897566817,15.869556427,1.88445818424,-1.17124032974,-131.225265503,0,0,0,0,0,0,0,0,0,5,6,0
0,0,89733833,37.5774629476,126.897567431,15.8701162338,1.88634896278,-1.19530451298,-131.224060059,0,0,0,0,0,0,0,0,0,5,6,0
0,0,89743970,37.57746251,126.897568041,15.8701000214,1.88245284557,-1.21782183647,-131.222396851,0,0,0,0,0,0,0,0,0,5,6,0
0,0,89753984,37.5774620701,126.897568656,15.8701696396,1.88445818424,-1.24016714096,-131.220916748,0,0,0,0,0,0,0,0,0,5,6,0
0,0,89763853,37.5774616276,126.897569268,15.8700723648,1.88107776642,-1.26188230515,-131.219818115,0,0,0,0,0,0,0,0,0,5,6,0
0,0,89774026,37.5774611929,126.897569874,15.8698883057,1.879301548,-1.28130555153,-131.218444824,0,0,0,0,0,0,0,0,0,5,6,0
0,0,89783958,37.5774607562,126.897570484,15.8698320389,1.88491654396,-1.29952561855,-131.216781616,0,0,0,0,0,0,0,0,0,5,6,0
0,0,89793837,37.5774603172,126.897571091,15.8694972992,1.8806194067,-1.31224524975,-131.215072632,0,0,0,0,0,0,0,0,0,5,6,0
0,0,89803903,37.577459886,126.897571692,15.869178772,1.89093255997,-1.32198548317,-131.215240479,0,0,0,0,0,0,0,0,0,5,6,0
0,0,89813817,37.5774594521,126.897572297,15.8689594269,1.88909912109,-1.33630943298,-131.213699341,0,0,0,0,0,0,0,0,0,5,6,0
0,0,89834010,37.5774585891,126.897573495,15.8681716919,1.89505791664,-1.36186337471,-131.213638306,0,0,0,0,0,0,0,0,0,5,6,0
0,0,89843872,37.5774581585,126.897574095,15.8678455353,1.89906859398,-1.37022852898,-131.212432861,0,0,0,0,0,0,0,0,0,5,6,0
0,0,89854004,37.5774577271,126.897574693,15.8673257828,1.91442382336,-1.37664568424,-131.213119507,0,0,0,0,0,0,0,0,0,5,6,0
0,0,89863896,37.5774573034,126.897575284,15.866897583,1.91929399967,-1.3832347393,-131.214904785,0,0,0,0,0,0,0,0,0,5,6,0
0,0,89873840,37.5774568762,126.897575879,15.866607666,1.92107021809,-1.39159989357,-131.218505859,0,0,0,0,0,0,0,0,0,5,6,0
0,0,89883864,37.5774564489,126.897576472,15.8661231995,1.93126881123,-1.39916288853,-131.220458984,0,0,0,0,0,0,0,0,0,5,6,0
0,0,89894029,37.5774560288,126.897577058,15.8657207489,1.93373250961,-1.40666866302,-131.2237854,0,0,0,0,0,0,0,0,0,5,6,0
0,0,89903966,37.5774556056,126.897577649,15.865316391,1.94232690334,-1.41692459583,-131.230484009,0,0,0,0,0,0,0,0,0,5,6,0
0,0,89914040,37.5774551823,126.897578236,15.8647689819,1.95000457764,-1.42569088936,-131.234436035,0,0,0,0,0,0,0,0,0,5,6,0
0,0,89923867,37.5774547662,126.897578818,15.8641777039,1.96037507057,-1.42958700657,-131.242279053,0,0,0,0,0,0,0,0,0,5,6,0
0,0,89934369,37.5774543465,126.897579403,15.8637857437,1.96111989021,-1.43709278107,-131.250762939,0,0,0,0,0,0,0,0,0,5,6,0
0,0,89944034,37.5774539273,126.897579986,15.8630256653,1.96123456955,-1.44265043736,-131.261199951,0,0,0,0,0,0,0,0,0,5,6,0
0,0,89953865,37.5774535151,126.897580563,15.8622817993,1.96839654446,-1.44379639626,-131.273117065,0,0,0,0,0,0,0,0,0,5,6,0
0,0,89963874,37.5774530999,126.897581144,15.8616542816,1.97916805744,-1.44872379303,-131.285598755,0,0,0,0,0,0,0,0,0,5,6,0
0,0,89975195,37.5774526849,126.897581721,15.86079216,1.96879756451,-1.44809353352,-131.299987793,0,0,0,0,0,0,0,0,0,5,6,0
0,0,89983977,37.5774522764,126.897582292,15.8600139618,1.97149050236,-1.45221877098,-131.3152771,0,0,0,0,0,0,0,0,0,5,6,0
0,0,89993932,37.577451865,126.897582868,15.8591995239,1.9797410965,-1.45726084709,-131.329666138,0,0,0,0,0,0,0,0,0,5,6,0
0,0,90003810,37.5774514776,126.897583443,15.8592338562,1.97853791714,-1.45834946632,-131.347244263,0,0,0,0,0,0,0,0,0,5,6,0
0,0,90013970,37.5774510732,126.897584008,15.8583679199,1.98117351532,-1.4613288641,-131.368331909,0,0,0,0,0,0,0,0,0,5,6,0
0,0,90023840,37.5774506655,126.897584578,15.8575410843,1.98816359043,-1.45983922482,-131.388397217,0,0,0,0,0,0,0,0,0,5,6,0
0,0,90034570,37.5774502814,126.897585147,15.8574371338,1.98667383194,-1.4592089653,-131.411819458,0,0,0,0,0,0,0,0,0,5,6,0
0,0,90043870,37.5774498808,126.897585706,15.8565139771,1.97601687908,-1.45966732502,-131.43560791,0,0,0,0,0,0,0,0,0,5,6,0
0,0,90053892,37.5774494771,126.897586271,15.855632782,1.9755011797,-1.46258938313,-131.458633423,0,0,0,0,0,0,0,0,0,5,6,0
0,0,90066069,37.5774490961,126.897586833,15.8554887772,1.97481358051,-1.45915162563,-131.483505249,0,0,0,0,0,0,0,0,0,5,6,0
0,0,90073935,37.5774486992,126.897587387,15.8545455933,1.97149050236,-1.46184456348,-131.513183594,0,0,0,0,0,0,0,0,0,5,6,0
0,0,90084801,37.5774482995,126.897587945,15.8536624908,1.96879756451,-1.46906375885,-131.535232544,0,0,0,0,0,0,0,0,0,5,6,0
0,0,90093805,37.5774478769,126.897588499,15.8521728516,1.95859897137,-1.46975135803,-131.570297241,0,0,0,0,0,0,0,0,0,5,6,0
0,0,90104452,37.5774474838,126.897589046,15.8512086868,1.95957291126,-1.47267341614,-131.602966309,0,0,0,0,0,0,0,0,0,5,6,0
0,0,90123817,37.5774466683,126.897590139,15.8488674164,1.94822835922,-1.47977805138,-131.668502808,0,0,0,0,0,0,0,0,0,5,6,0
0,0,90134548,37.5774462789,126.89759068,15.8479442596,1.94066536427,-1.48063755035,-131.705413818,0,0,0,0,0,0,0,0,0,5,6,0
0,0,90143963,37.5774458862,126.897591225,15.8470392227,1.94118106365,-1.48424720764,-131.741271973,0,0,0,0,0,0,0,0,0,5,6,0
0,0,90153801,37.5774454711,126.89759176,15.8456754684,1.94301450253,-1.4865963459,-131.782012939,0,0,0,0,0,0,0,0,0,5,6,0
0,0,90163837,37.5774450854,126.897592293,15.8448143005,1.93356072903,-1.49129450321,-131.818908691,0,0,0,0,0,0,0,0,0,5,6,0
0,0,90173973,37.5774446964,126.897592832,15.8439273834,1.93012297153,-1.49811279774,-131.862792969,0,0,0,0,0,0,0,0,0,5,6,0
0,0,90183979,37.5774442851,126.89759336,15.8426828384,1.92817485332,-1.50229537487,-131.90737915,0,0,0,0,0,0,0,0,0,5,6,0
0,0,90194020,37.5774439035,126.897593886,15.8419322968,1.92576849461,-1.50716543198,-131.952178955,0,0,0,0,0,0,0,0,0,5,6,0
0,0,90203819,37.5774435187,126.897594418,15.8410787582,1.93235743046,-1.51713490486,-131.999969482,0,0,0,0,0,0,0,0,0,5,6,0
0,0,90213772,37.5774431135,126.897594941,15.8406391144,1.92525279522,-1.5236093998,-132.049118042,0,0,0,0,0,0,0,0,0,5,6,0
0,0,90224021,37.5774427359,126.89759546,15.839972496,1.92685711384,-1.52750551701,-132.101028442,0,0,0,0,0,0,0,0,0,5,6,0
0,0,90234638,37.5774423552,126.897595985,15.8392190933,1.92565381527,-1.53650093079,-132.151275635,0,0,0,0,0,0,0,0,0,5,6,0
0,0,90244758,37.5774419548,126.897596499,15.8388729095,1.92582571507,-1.54681420326,-132.20954895,0,0,0,0,0,0,0,0,0,5,6,0
0,0,90254097,37.5774415811,126.89759701,15.8383188248,1.93058133125,-1.54910600185,-132.261871338,0,0,0,0,0,0,0,0,0,5,6,0
0,0,90265766,37.5774412042,126.897597527,15.837647438,1.93241477013,-1.55580961704,-132.320419312,0,0,0,0,0,0,0,0,0,5,6,0
0,0,90274793,37.577440816,126.897598035,15.8366785049,1.94083726406,-1.56726872921,-132.378631592,0,0,0,0,0,0,0,0,0,5,6,0
0,0,90285190,37.5774404466,126.897598538,15.8362083435,1.93929028511,-1.57718098164,-132.438278198,0,0,0,0,0,0,0,0,0,5,6,0
0,0,90296380,37.5774400732,126.897599047,15.8356676102,1.93654000759,-1.58892655373,-132.499694824,0,0,0,0,0,0,0,0,0,5,6,0
0,0,90303848,37.5774396896,126.897599546,15.8348007202,1.94490528107,-1.60164618492,-132.559509277,0,0,0,0,0,0,0,0,0,5,6,0
0,0,90314037,37.5774393238,126.897600039,15.8344154358,1.94622302055,-1.61155843735,-132.623397827,0,0,0,0,0,0,0,0,0,5,6,0
0,0,90323871,37.577438955,126.89760054,15.8339424133,1.95710921288,-1.62336134911,-132.688491821,0,0,0,0,0,0,0,0,0,5,6,0
0,0,90333841,37.5774385761,126.897601031,15.8331575394,1.97704815865,-1.63252866268,-132.754714966,0,0,0,0,0,0,0,0,0,5,6,0
0,0,90343808,37.5774382145,126.897601515,15.8327388763,1.98449659348,-1.64478993416,-132.818145752,0,0,0,0,0,0,0,0,0,5,6,0
0,0,90353925,37.5774378493,126.897602006,15.8323917389,1.99876332283,-1.65785336494,-132.892227173,0,0,0,0,0,0,0,0,0,5,6,0
0,0,90363805,37.5774374769,126.897602481,15.8322591782,2.00821709633,-1.6740680933,-132.960067749,0,0,0,0,0,0,0,0,0,5,6,0
0,0,90373871,37.5774371193,126.897602955,15.8318738937,2.0225982666,-1.68541264534,-133.027282715,0,0,0,0,0,0,0,0,0,5,6,0
0,0,90383885,37.5774367586,126.897603438,15.8314657211,2.03967237473,-1.6993355751,-133.095062256,0,0,0,0,0,0,0,0,0,5,6,0
0,0,90393901,37.577436391,126.897603903,15.8313398361,2.05875205994,-1.71027898788,-133.168746948,0,0,0,0,0,0,0,0,0,5,6,0
0,0,90403872,37.577436038,126.897604369,15.8308982849,2.08132648468,-1.72231113911,-133.241271973,0,0,0,0,0,0,0,0,0,5,6,0
0,0,90413966,37.577435681,126.897604841,15.8305692673,2.0946764946,-1.73697888851,-133.314041138,0,0,0,0,0,0,0,0,0,5,6,0
0,0,90423981,37.5774353182,126.897605297,15.8303995132,2.11335492134,-1.74654722214,-133.389389038,0,0,0,0,0,0,0,0,0,5,6,0
0,0,90433880,37.5774349693,126.897605752,15.8299617767,2.13438248634,-1.75674593449,-133.463989258,0,0,0,0,0,0,0,0,0,5,6,0
0,0,90443864,37.5774346168,126.897606216,15.8295669556,2.14836263657,-1.7712417841,-133.543395996,0,0,0,0,0,0,0,0,0,5,6,0
0,0,90453911,37.5774342589,126.897606662,15.8293676376,2.17477583885,-1.78356027603,-133.620925903,0,0,0,0,0,0,0,0,0,5,6,0
0,0,90465091,37.5774339146,126.897607108,15.8288831711,2.18995928764,-1.79530596733,-133.696777344,0,0,0,0,0,0,0,0,0,5,6,0
0,0,90474030,37.5774335662,126.897607562,15.8284597397,2.21327877045,-1.80842673779,-133.777450562,0,0,0,0,0,0,0,0,0,5,6,0
0,0,90484486,37.5774332135,126.897607999,15.8281927109,2.23212909698,-1.81805241108,-133.861160278,0,0,0,0,0,0,0,0,0,5,6,0
0,0,90493978,37.5774328738,126.897608434,15.8276968002,2.24421834946,-1.82773542404,-133.940628052,0,0,0,0,0,0,0,0,0,5,6,0
0,0,90503939,37.5774325306,126.897608878,15.8271875381,2.27223610878,-1.83518385887,-134.024169922,0,0,0,0,0,0,0,0,0,5,6,0
0,0,90513997,37.5774321881,126.897609302,15.8261651993,2.28667449951,-1.84480953217,-134.107070923,0,0,0,0,0,0,0,0,0,5,6,0
0,0,90523863,37.5774318537,126.897609728,15.8256158829,2.30013895035,-1.85237252712,-134.193710327,0,0,0,0,0,0,0,0,0,5,6,0
0,0,90533977,37.5774315151,126.897610162,15.8250865936,2.31217122078,-1.85850322247,-134.279586792,0,0,0,0,0,0,0,0,0,5,6,0
0,0,90544210,37.577431178,126.897610576,15.8240404129,2.32809948921,-1.86830079556,-134.368118286,0,0,0,0,0,0,0,0,0,5,6,0
0,0,90553945,37.5774308491,126.897610992,15.8233976364,2.34775185585,-1.86893105507,-134.456069946,0,0,0,0,0,0,0,0,0,5,6,0
0,0,90564650,37.5774305155,126.897611417,15.822851181,2.35806512833,-1.87471795082,-134.549118042,0,0,0,0,0,0,0,0,0,5,6,0
0,0,90573921,37.5774301839,126.897611822,15.8217439651,2.36969614029,-1.87718164921,-134.64175415,0,0,0,0,0,0,0,0,0,5,6,0
0,0,90583843,37.57742986,126.897612229,15.8210525513,2.38195753098,-1.8721395731,-134.734405518,0,0,0,0,0,0,0,0,0,5,6,0
0,0,90593978,37.5774295318,126.897612644,15.8204212189,2.3880879879,-1.87116551399,-134.828598022,0,0,0,0,0,0,0,0,0,5,6,0
0,0,90604656,37.5774291996,126.897613045,15.8195180893,2.40607905388,-1.86732673645,-134.926345825,0,0,0,0,0,0,0,0,0,5,6,0
0,0,90613932,37.5774288811,126.897613443,15.8187961578,2.40648007393,-1.86297225952,-135.024490356,0,0,0,0,0,0,0,0,0,5,6,0
0,0,90624031,37.577428558,126.897613849,15.8180837631,2.41759538651,-1.85907614231,-135.123382568,0,0,0,0,0,0,0,0,0,5,6,0
0,0,90633950,37.5774282316,126.897614241,15.8171310425,2.41931438446,-1.85053908825,-135.225265503,0,0,0,0,0,0,0,0,0,5,6,0
0,0,90643884,37.5774279185,126.897614629,15.8163309097,2.4233250618,-1.8397102356,-135.332000732,0,0,0,0,0,0,0,0,0,5,6,0
0,0,90655266,37.5774276012,126.897615026,15.815574646,2.42762207985,-1.83312118053,-135.436676025,0,0,0,0,0,0,0,0,0,5,6,0
0,0,90664687,37.5774272808,126.897615403,15.8146753311,2.42252278328,-1.82034420967,-135.541366577,0,0,0,0,0,0,0,0,0,5,6,0
0,0,90674611,37.5774269728,126.897615782,15.8138237,2.42401266098,-1.80796837807,-135.653091431,0,0,0,0,0,0,0,0,0,5,6,0
0,0,90683873,37.5774266602,126.89761617,15.8129606247,2.4185693264,-1.79060769081,-135.760864258,0,0,0,0,0,0,0,0,0,5,6,0
0,0,90695035,37.5774263375,126.897616544,15.8129692078,2.41014695168,-1.7710698843,-135.877853394,0,0,0,0,0,0,0,0,0,5,6,0
0,0,90704642,37.5774260333,126.897616917,15.8119802475,2.40871453285,-1.75726151466,-135.993301392,0,0,0,0,0,0,0,0,0,5,6,0
0,0,90714014,37.5774257261,126.897617294,15.8111667633,2.39032268524,-1.73571836948,-136.109786987,0,0,0,0,0,0,0,0,0,5,6,0
0,0,90726621,37.5774254084,126.897617661,15.8110694885,2.38642644882,-1.71245622635,-136.229888916,0,0,0,0,0,0,0,0,0,5,6,0
0,0,90734046,37.5774251084,126.897618025,15.8100452423,2.37685823441,-1.69280385971,-136.35043335,0,0,0,0,0,0,0,0,0,5,6,0
0,0,90743917,37.5774248044,126.897618396,15.809091568,2.36230492592,-1.66696345806,-136.479125977,0,0,0,0,0,0,0,0,0,5,6,0
0,0,90753898,37.5774244909,126.897618755,15.808886528,2.34838199615,-1.64307105541,-136.6065979,0,0,0,0,0,0,0,0,0,5,6,0
0,0,90763860,37.5774241936,126.897619112,15.8078432083,2.32827138901,-1.61671495438,-136.732879639,0,0,0,0,0,0,0,0,0,5,6,0
0,0,90773933,37.5774238943,126.897619475,15.806810379,2.32019257545,-1.5920778513,-136.863739014,0,0,0,0,0,0,0,0,0,5,6,0
0,0,90783966,37.5774235844,126.897619828,15.8065185547,2.30604052544,-1.56509149075,-137.000228882,0,0,0,0,0,0,0,0,0,5,6,0
0,0,90793860,37.5774232897,126.897620178,15.8054409027,2.28214812279,-1.5369592905,-137.137557983,0,0,0,0,0,0,0,0,0,5,6,0
0,0,90804963,37.5774229927,126.897620534,15.8043651581,2.27160573006,-1.50590503216,-137.276672363,0,0,0,0,0,0,0,0,0,5,6,0
0,0,90813821,37.577422672,126.897620891,15.8040390015,2.25143766403,-1.4790905714,-137.416702271,0,0,0,0,0,0,0,0,0,5,6,0
0,0,90823822,37.5774223796,126.897621235,15.8028869629,2.23464989662,-1.45090103149,-137.563034058,0,0,0,0,0,0,0,0,0,5,6,0
0,0,90833877,37.5774220856,126.897621584,15.8017978668,2.21539855003,-1.42339909077,-137.706054688,0,0,0,0,0,0,0,0,0,5,6,0
0,0,90844633,37.5774217685,126.897621933,15.8014211655,2.1963763237,-1.39308953285,-137.855484009,0,0,0,0,0,0,0,0,0,5,6,0
0,0,90853914,37.5774214787,126.89762227,15.800286293,2.18021893501,-1.3653011322,-138.004684448,0,0,0,0,0,0,0,0,0,5,6,0
0,0,90863880,37.5774211865,126.897622613,15.7991580963,2.16434812546,-1.33705425262,-138.157653809,0,0,0,0,0,0,0,0,0,5,6,0
0,0,90873845,37.5774208726,126.897622955,15.7987537384,2.14492487907,-1.31470894814,-138.307769775,0,0,0,0,0,0,0,0,0,5,6,0
0,0,90883801,37.5774205847,126.897623285,15.7976474762,2.13146018982,-1.28686320782,-138.464813232,0,0,0,0,0,0,0,0,0,5,6,0
0,0,90893926,37.5774202952,126.89762362,15.7965288162,2.11742281914,-1.26251244545,-138.622039795,0,0,0,0,0,0,0,0,0,5,6,0
0,0,90903789,37.5774199844,126.897623955,15.7960968018,2.10619282722,-1.23873472214,-138.780288696,0,0,0,0,0,0,0,0,0,5,6,0
0,0,90913930,37.577419698,126.897624277,15.7950124741,2.08808732033,-1.21472787857,-138.939178467,0,0,0,0,0,0,0,0,0,5,6,0
0,0,90923865,37.57741941,126.897624606,15.7939157486,2.07817530632,-1.19089281559,-139.101150513,0,0,0,0,0,0,0,0,0,5,6,0
0,0,90933807,37.5774191015,126.897624933,15.7934570313,2.07336235046,-1.167573452,-139.261352539,0,0,0,0,0,0,0,0,0,5,6,0
0,0,90944740,37.5774188162,126.897625248,15.7923746109,2.06345009804,-1.14264976978,-139.427444458,0,0,0,0,0,0,0,0,0,5,6,0
0,0,90953851,37.5774185301,126.897625569,15.7912988663,2.05680394173,-1.1253464222,-139.592285156,0,0,0,0,0,0,0,0,0,5,6,0
0,0,90963838,37.5774182505,126.897625876,15.7911109924,2.04671978951,-1.10334479809,-139.758560181,0,0,0,0,0,0,0,0,0,5,6,0
0,0,90973910,37.5774179663,126.897626184,15.7900848389,2.04437065125,-1.08237457275,-139.924194336,0,0,0,0,0,0,0,0,0,5,6,0
0,0,90983881,37.5774176813,126.897626498,15.7889814377,2.04351139069,-1.07034242153,-140.090011597,0,0,0,0,0,0,0,0,0,5,6,0
0,0,90993800,37.5774174025,126.897626798,15.7887907028,2.03806805611,-1.05189323425,-140.258239746,0,0,0,0,0,0,0,0,0,5,6,0
0,0,91003799,37.5774171194,126.897627098,15.7878131866,2.04041719437,-1.04060590267,-140.425369263,0,0,0,0,0,0,0,0,0,5,6,0
0,0,91013875,37.5774168355,126.897627405,15.786781311,2.04540205002,-1.02679765224,-140.592559814,0,0,0,0,0,0,0,0,0,5,6,0
0,0,91024682,37.5774165576,126.897627697,15.786608696,2.04694890976,-1.01424992085,-140.757110596,0,0,0,0,0,0,0,0,0,5,6,0
0,0,91035503,37.5774162758,126.89762799,15.785654068,2.0553715229,-1.00273346901,-140.927398682,0,0,0,0,0,0,0,0,0,5,6,0
0,0,91043859,37.5774159929,126.897628289,15.7847146988,2.0555434227,-0.993222355843,-141.093032837,0,0,0,0,0,0,0,0,0,5,6,0
0,0,91054458,37.577415716,126.897628574,15.7845478058,2.06505441666,-0.980674564838,-141.263427734,0,0,0,0,0,0,0,0,0,5,6,0
0,0,91063787,37.5774154354,126.897628859,15.7836666107,2.07244563103,-0.973226130009,-141.431365967,0,0,0,0,0,0,0,0,0,5,6,0
0,0,91074775,37.5774151538,126.89762915,15.7827653885,2.08018064499,-0.963027477264,-141.597579956,0,0,0,0,0,0,0,0,0,5,6,0
0,0,91083854,37.5774148782,126.897629428,15.7826328278,2.0954785347,-0.955980062485,-141.764877319,0,0,0,0,0,0,0,0,0,5,6,0
0,0,91093898,37.5774145995,126.897629706,15.7818632126,2.10882854462,-0.951224505901,-141.933624268,0,0,0,0,0,0,0,0,0,5,6,0
0,0,91104080,37.5774143193,126.89762999,15.781003952,2.12126159668,-0.94560956955,-142.09954834,0,0,0,0,0,0,0,0,0,5,6,0
0,0,91114548,37.577414056,126.897630249,15.7806749344,2.13512730598,-0.938905954361,-142.265991211,0,0,0,0,0,0,0,0,0,5,6,0
0,0,91123843,37.5774137788,126.897630519,15.7799730301,2.15071177483,-0.936155736446,-142.437988281,0,0,0,0,0,0,0,0,0,5,6,0
0,0,91133901,37.5774135006,126.897630796,15.7791976929,2.16939020157,-0.931743979454,-142.606552124,0,0,0,0,0,0,0,0,0,5,6,0
0,0,91143886,37.5774132379,126.897631043,15.7790155411,2.17987513542,-0.929337561131,-142.773803711,0,0,0,0,0,0,0,0,0,5,6,0
0,0,91153840,37.5774129627,126.897631307,15.778424263,2.19901204109,-0.926873803139,-142.944656372,0,0,0,0,0,0,0,0,0,5,6,0
0,0,91163977,37.5774126862,126.897631576,15.7777385712,2.22227406502,-0.924180924892,-143.110137939,0,0,0,0,0,0,0,0,0,5,6,0
0,0,91173886,37.5774124224,126.897631804,15.7769680023,2.23591041565,-0.922290146351,-143.277374268,0,0,0,0,0,0,0,0,0,5,6,0
0,0,91183838,37.5774121495,126.89763206,15.7764606476,2.25837039948,-0.920112907887,-143.448806763,0,0,0,0,0,0,0,0,0,5,6,0
0,0,91193835,37.5774118747,126.897632323,15.7758951187,2.27458524704,-0.921086966991,-143.61680603,0,0,0,0,0,0,0,0,0,5,6,0
0,0,91203840,37.5774116125,126.897632545,15.775229454,2.29332089424,-0.918909728527,-143.789825439,0,0,0,0,0,0,0,0,0,5,6,0
0,0,91213828,37.5774113415,126.897632796,15.7748308182,2.30753016472,-0.916102230549,-143.957473755,0,0,0,0,0,0,0,0,0,5,6,0
0,0,91224031,37.5774110689,126.897633052,15.7743434906,2.32643795013,-0.914326071739,-144.127532959,0,0,0,0,0,0,0,0,0,5,6,0
0,0,91233900,37.577410809,126.897633269,15.7732057571,2.34551739693,-0.912664473057,-144.297241211,0,0,0,0,0,0,0,0,0,5,6,0
0,0,91243797,37.5774105404,126.897633513,15.7728900909,2.35388255119,-0.913695812225,-144.469589233,0,0,0,0,0,0,0,0,0,5,6,0
0,0,91254668,37.5774102697,126.897633763,15.7725105286,2.37112855911,-0.912378013134,-144.641311646,0,0,0,0,0,0,0,0,0,5,6,0
0,0,91263790,37.5774100115,126.897633975,15.7715044022,2.38556718826,-0.907507836819,-144.810897827,0,0,0,0,0,0,0,0,0,5,6,0
0,0,91273867,37.5774097449,126.897634215,15.7712554932,2.40132331848,-0.907737016678,-144.985427856,0,0,0,0,0,0,0,0,0,5,6,0
0,0,91284076,37.5774094766,126.897634458,15.7709112167,2.41559004784,-0.907565176487,-145.155929565,0,0,0,0,0,0,0,0,0,5,6,0
0,0,91293859,37.5774092084,126.897634677,15.7701177597,2.42756485939,-0.906018137932,-145.330108643,0,0,0,0,0,0,0,0,0,5,6,0
0,0,91304510,37.577408944,126.89763491,15.7698993683,2.43741965294,-0.905330598354,-145.504516602,0,0,0,0,0,0,0,0,0,5,6,0
0,0,91314066,37.5774086778,126.897635149,15.7696256638,2.45157170296,-0.90080422163,-145.679443359,0,0,0,0,0,0,0,0,0,5,6,0
0,0,91325314,37.5774084117,126.897635362,15.7688989639,2.45987963676,-0.899772942066,-145.851501465,0,0,0,0,0,0,0,0,0,5,6,0
0,0,91333821,37.5774081496,126.89763559,15.7687101364,2.47059392929,-0.894387125969,-146.023849487,0,0,0,0,0,0,0,0,0,5,6,0
0,0,91343845,37.5774078856,126.897635823,15.7684850693,2.48067808151,-0.889173209667,-146.1980896,0,0,0,0,0,0,0,0,0,5,6,0
0,0,91353990,37.5774076217,126.897636032,15.7678203583,2.48950171471,-0.886995971203,-146.374099731,0,0,0,0,0,0,0,0,0,5,6,0
0,0,91363847,37.5774073614,126.897636255,15.7676334381,2.49563217163,-0.884417653084,-146.547424316,0,0,0,0,0,0,0,0,0,5,6,0
0,0,91374677,37.5774070997,126.897636482,15.7674636841,2.49798130989,-0.880292356014,-146.723373413,0,0,0,0,0,0,0,0,0,5,6,0
0,0,91384637,37.5774068408,126.89763668,15.7670249939,2.50050234795,-0.879948556423,-146.896865845,0,0,0,0,0,0,0,0,0,5,6,0
0,0,91393874,37.5774065824,126.897636898,15.7668571472,2.50485682487,-0.87908911705,-147.070648193,0,0,0,0,0,0,0,0,0,5,6,0
0,0,91403799,37.5774063223,126.89763712,15.7666950226,2.50405478477,-0.874734640121,-147.245742798,0,0,0,0,0,0,0,0,0,5,6,0
0,0,91413841,37.5774060653,126.897637314,15.7662773132,2.51482629776,-0.868374824524,-147.421646118,0,0,0,0,0,0,0,0,0,5,6,0
0,0,91425223,37.5774058087,126.897637526,15.7660770416,2.52141547203,-0.86619758606,-147.592895508,0,0,0,0,0,0,0,0,0,5,6,0
0,0,91433964,37.5774055505,126.897637742,15.7659463882,2.5126490593,-0.8649944067,-147.767929077,0,0,0,0,0,0,0,0,0,5,6,0
0,0,91443770,37.5774052954,126.897637932,15.765496254,2.51511287689,-0.861671209335,-147.940505981,0,0,0,0,0,0,0,0,0,5,6,0
0,0,91455394,37.5774050408,126.897638138,15.7652750015,2.50881028175,-0.860983669758,-148.112228394,0,0,0,0,0,0,0,0,0,5,6,0
0,0,91464177,37.5774047846,126.897638349,15.7650709152,2.50485682487,-0.857545912266,-148.283432007,0,0,0,0,0,0,0,0,0,5,6,0
0,0,91473912,37.5774045314,126.897638534,15.7646131516,2.50015854836,-0.856285452843,-148.457885742,0,0,0,0,0,0,0,0,0,5,6,0
0,0,91483941,37.5774042786,126.897638736,15.7643594742,2.49431443214,-0.8522747159,-148.627716064,0,0,0,0,0,0,0,0,0,5,6,0
0,0,91494877,37.5774040245,126.897638941,15.7641086578,2.49282479286,-0.849123477936,-148.802001953,0,0,0,0,0,0,0,0,0,5,6,0
0,0,91503787,37.5774037672,126.897639122,15.7637891769,2.48824119568,-0.849925577641,-148.971038818,0,0,0,0,0,0,0,0,0,5,6,0
0,0,91513984,37.5774035163,126.897639319,15.7634897232,2.4756360054,-0.849524497986,-149.142227173,0,0,0,0,0,0,0,0,0,5,6,0
0,0,91524899,37.5774032638,126.897639519,15.7632236481,2.46423411369,-0.847003519535,-149.316635132,0,0,0,0,0,0,0,0,0,5,6,0
0,0,91533906,37.5774030085,126.897639696,15.7628793716,2.45369172096,-0.850670456886,-149.486404419,0,0,0,0,0,0,0,0,0,5,6,0
0,0,91543786,37.5774027596,126.897639888,15.7625312805,2.44561314583,-0.850441277027,-149.660873413,0,0,0,0,0,0,0,0,0,5,6,0
0,0,91553858,37.577402509,126.897640083,15.7622289658,2.43169021606,-0.853019595146,-149.831207275,0,0,0,0,0,0,0,0,0,5,6,0
0,0,91564139,37.5774022559,126.897640256,15.7618379593,2.41988730431,-0.856285452843,-150.004074097,0,0,0,0,0,0,0,0,0,5,6,0
0,0,91575310,37.5774020091,126.897640442,15.7614660263,2.40516233444,-0.857431352139,-150.175735474,0,0,0,0,0,0,0,0,0,5,6,0
0,0,91586967,37.5774017605,126.897640633,15.7611112595,2.39083838463,-0.857030272484,-150.350143433,0,0,0,0,0,0,0,0,0,5,6,0
0,0,91593988,37.5774015086,126.897640797,15.7602291107,2.38212943077,-0.859837770462,-150.522720337,0,0,0,0,0,0,0,0,0,5,6,0
0,0,91603851,37.5774012635,126.897640979,15.7597551346,2.35898184776,-0.862186908722,-150.696090698,0,0,0,0,0,0,0,0,0,5,6,0
0,0,91615416,37.5774010169,126.897641165,15.7594194412,2.33503222466,-0.861442029476,-150.86895752,0,0,0,0,0,0,0,0,0,5,6,0
0,0,91627266,37.5774007668,126.897641325,15.7585048676,2.31921863556,-0.861900389194,-151.048629761,0,0,0,0,0,0,0,0,0,5,6,0
0,0,91634071,37.577400523,126.897641503,15.7580022812,2.29784727097,-0.863275527954,-151.222122192,0,0,0,0,0,0,0,0,0,5,6,0
0,0,91644239,37.577400278,126.897641685,15.7575416565,2.27670502663,-0.863504707813,-151.398132324,0,0,0,0,0,0,0,0,0,5,6,0
0,0,91655398,37.577400029,126.897641837,15.7566957474,2.25854229927,-0.864306807518,-151.570999146,0,0,0,0,0,0,0,0,0,5,6,0
0,0,91663996,37.5773997862,126.897642011,15.7561702728,2.24123907089,-0.865624666214,-151.747299194,0,0,0,0,0,0,0,0,0,5,6,0
0,0,91673981,37.5773995426,126.897642188,15.7556447983,2.22433686256,-0.865624666214,-151.920562744,0,0,0,0,0,0,0,0,0,5,6,0
0,0,91684712,37.5773992948,126.897642337,15.7547864914,2.20428323746,-0.871239602566,-152.096343994,0,0,0,0,0,0,0,0,0,5,6,0
0,0,91693815,37.5773990527,126.897642507,15.7542285919,2.19608998299,-0.869463443756,-152.273040771,0,0,0,0,0,0,0,0,0,5,6,0
0,0,91704605,37.57739881,126.89764268,15.7536735535,2.18371415138,-0.869176983833,-152.446136475,0,0,0,0,0,0,0,0,0,5,6,0
0,0,91713907,37.5773985645,126.897642818,15.7528867722,2.17569255829,-0.868145644665,-152.619277954,0,0,0,0,0,0,0,0,0,5,6,0
0,0,91727794,37.5773983228,126.897642984,15.7523059845,2.17156744003,-0.866484045982,-152.79838562,0,0,0,0,0,0,0,0,0,5,6,0
0,0,91734009,37.5773980809,126.897643153,15.7517518997,2.1657230854,-0.866254866123,-152.972061157,0,0,0,0,0,0,0,0,0,5,6,0
0,0,91743825,37.5773978357,126.897643287,15.7509708405,2.16348862648,-0.869062364101,-153.147613525,0,0,0,0,0,0,0,0,0,5,6,0
0,0,91753933,37.5773975939,126.897643448,15.7504205704,2.16337394714,-0.870150983334,-153.322189331,0,0,0,0,0,0,0,0,0,5,6,0
0,0,91763809,37.577397352,126.897643613,15.7498664856,2.16681170464,-0.873302280903,-153.499053955,0,0,0,0,0,0,0,0,0,5,6,0
0,0,91774808,37.5773971069,126.897643745,15.7491207123,2.17855739594,-0.877599477768,-153.677017212,0,0,0,0,0,0,0,0,0,5,6,0
0,0,91783960,37.577396865,126.897643901,15.7485933304,2.18789672852,-0.882183134556,-153.850799561,0,0,0,0,0,0,0,0,0,5,6,0
0,0,91793863,37.5773966232,126.897644062,15.7480716705,2.19689202309,-0.884532272816,-154.0259552,0,0,0,0,0,0,0,0,0,5,6,0
0,0,91803820,37.5773963735,126.897644195,15.7477006912,2.21505475044,-0.890147209167,-154.203109741,0,0,0,0,0,0,0,0,0,5,6,0
0,0,91815087,37.5773961318,126.897644347,15.747220993,2.21723198891,-0.891522347927,-154.378890991,0,0,0,0,0,0,0,0,0,5,6,0
0,0,91824959,37.5773958897,126.897644503,15.7466964722,2.23522305489,-0.897767543793,-154.558395386,0,0,0,0,0,0,0,0,0,5,6,0
0,0,91833992,37.57739564,126.897644633,15.7463302612,2.24192667007,-0.900632381439,-154.735900879,0,0,0,0,0,0,0,0,0,5,6,0
0,0,91844729,37.5773953976,126.89764478,15.7458524704,2.25040626526,-0.906361937523,-154.913803101,0,0,0,0,0,0,0,0,0,5,6,0
0,0,91855038,37.577395156,126.897644931,15.7453670502,2.25499010086,-0.910143435001,-155.094238281,0,0,0,0,0,0,0,0,0,5,6,0
0,0,91863897,37.5773949062,126.897645058,15.7450380325,2.2598028183,-0.913924992085,-155.277923584,0,0,0,0,0,0,0,0,0,5,6,0
0,0,91873959,37.5773946635,126.897645201,15.744641304,2.26346969604,-0.921430706978,-155.455429077,0,0,0,0,0,0,0,0,0,5,6,0
0,0,91887066,37.5773944211,126.897645348,15.7441759109,2.27028799057,-0.927561402321,-155.636993408,0,0,0,0,0,0,0,0,0,5,6,0
0,0,91894084,37.5773941715,126.897645472,15.7439222336,2.28157520294,-0.929394841194,-155.819366455,0,0,0,0,0,0,0,0,0,5,6,0
0,0,91905830,37.5773939286,126.897645612,15.7435979843,2.28862261772,-0.938161075115,-156.003051758,0,0,0,0,0,0,0,0,0,5,6,0
0,0,91914153,37.577393686,126.897645754,15.7432107925,2.30243086815,-0.946182489395,-156.187667847,0,0,0,0,0,0,0,0,0,5,6,0
0,0,91924974,37.5773934371,126.897645875,15.7423725128,2.31824445724,-0.952370464802,-156.37399292,0,0,0,0,0,0,0,0,0,5,6,0
0,0,91933957,37.5773931944,126.897646012,15.74214077,2.33434462547,-0.957698941231,-156.559051514,0,0,0,0,0,0,0,0,0,5,6,0
0,0,91943946,37.5773929515,126.897646152,15.7418479919,2.35216355324,-0.964287996292,-156.745727539,0,0,0,0,0,0,0,0,0,5,6,0
0,0,91953797,37.5773927029,126.89764627,15.7411308289,2.36872220039,-0.966465234756,-156.933258057,0,0,0,0,0,0,0,0,0,5,6,0
0,0,91963810,37.5773924602,126.897646404,15.7410049438,2.38911938667,-0.977007627487,-157.124328613,0,0,0,0,0,0,0,0,0,5,6,0
0,0,91973844,37.5773922174,126.89764654,15.74081707,2.40888643265,-0.981018364429,-157.313476563,0,0,0,0,0,0,0,0,0,5,6,0
0,0,91983825,37.5773919691,126.89764665,15.7394132614,2.423153162,-0.988753259182,-157.504669189,0,0,0,0,0,0,0,0,0,5,6,0
0,0,91993819,37.5773917262,126.897646781,15.7393426895,2.44400882721,-0.99390989542,-157.697235107,0,0,0,0,0,0,0,0,0,5,6,0
0,0,92003759,37.5773914834,126.897646914,15.7392377853,2.45667123795,-1.00691604614,-157.890731812,0,0,0,0,0,0,0,0,0,5,6,0
0,0,92014842,37.577391235,126.897647021,15.7379255295,2.47219824791,-1.01270294189,-158.082550049,0,0,0,0,0,0,0,0,0,5,6,0
0,0,92027764,37.5773909919,126.897647149,15.7378826141,2.4818239212,-1.02158379555,-158.276901245,0,0,0,0,0,0,0,0,0,5,6,0
0,0,92034409,37.5773907489,126.897647279,15.7378387451,2.48743891716,-1.02639663219,-158.471191406,0,0,0,0,0,0,0,0,0,5,6,0
0,0,92045334,37.5773905005,126.897647384,15.7366008759,2.49167895317,-1.032584548,-158.664505005,0,0,0,0,0,0,0,0,0,5,6,0
0,0,92053921,37.5773902572,126.897647508,15.7365684509,2.49414253235,-1.03842866421,-158.860977173,0,0,0,0,0,0,0,0,0,5,6,0
0,0,92063816,37.577390014,126.897647635,15.736495018,2.49196529388,-1.04157996178,-159.055374146,0,0,0,0,0,0,0,0,0,5,6,0
0,0,92073779,37.5773897715,126.89764774,15.7364959717,2.4912776947,-1.04645013809,-159.249664307,0,0,0,0,0,0,0,0,0,5,6,0
0,0,92083885,37.577389528,126.897647861,15.7364473343,2.48910045624,-1.05172133446,-159.447967529,0,0,0,0,0,0,0,0,0,5,6,0
0,0,92093819,37.5773892847,126.897647984,15.736374855,2.48331356049,-1.05584657192,-159.643569946,0,0,0,0,0,0,0,0,0,5,6,0
0,0,92103799,37.5773890418,126.897648088,15.7363462448,2.47082328796,-1.06043028831,-159.840042114,0,0,0,0,0,0,0,0,0,5,6,0
0,0,92114774,37.5773887978,126.897648205,15.7362279892,2.46314549446,-1.06375348568,-160.039093018,0,0,0,0,0,0,0,0,0,5,6,0
0,0,92124035,37.5773885543,126.897648326,15.7361412048,2.45111346245,-1.06644630432,-160.234924316,0,0,0,0,0,0,0,0,0,5,6,0
0,0,92133825,37.5773883109,126.897648427,15.7360630035,2.44131588936,-1.06896734238,-160.431442261,0,0,0,0,0,0,0,0,0,5,6,0
0,0,92143847,37.5773880667,126.897648542,15.7358942032,2.4335808754,-1.07131648064,-160.628204346,0,0,0,0,0,0,0,0,0,5,6,0
0,0,92153895,37.5773878226,126.897648659,15.7357673645,2.42326760292,-1.06988406181,-160.827713013,0,0,0,0,0,0,0,0,0,5,6,0
0,0,92163849,37.5773875783,126.897648753,15.7357521057,2.41937160492,-1.0734937191,-161.023834229,0,0,0,0,0,0,0,0,0,5,6,0
0,0,92174971,37.5773873335,126.897648865,15.7355470657,2.40945935249,-1.07687413692,-161.222595215,0,0,0,0,0,0,0,0,0,5,6,0
0,0,92183997,37.5773870891,126.897648979,15.7354040146,2.40218281746,-1.07905137539,-161.41734314,0,0,0,0,0,0,0,0,0,5,6,0
0,0,92193849,37.5773868172,126.897649069,15.7342176437,2.39215612411,-1.08243191242,-161.61529541,0,0,0,0,0,0,0,0,0,5,6,0
0,0,92203984,37.5773865719,126.897649179,15.7340326309,2.3786342144,-1.08661448956,-161.81892395,0,0,0,0,0,0,0,0,0,5,6,0
0,0,92213848,37.5773863269,126.897649291,15.7338142395,2.36826372147,-1.08993756771,-162.019058228,0,0,0,0,0,0,0,0,0,5,6,0
0,0,92223921,37.5773860545,126.897649378,15.7326488495,2.3605287075,-1.09532344341,-162.219528198,0,0,0,0,0,0,0,0,0,5,6,0
0,0,92233864,37.5773858088,126.897649485,15.7324037552,2.34500169754,-1.10334479809,-162.415435791,0,0,0,0,0,0,0,0,0,5,6,0
0,0,92243946,37.5773855634,126.897649594,15.732208252,2.3318810463,-1.10810041428,-162.615615845,0,0,0,0,0,0,0,0,0,5,6,0
0,0,92253798,37.5773852916,126.897649679,15.7310276031,2.31790065765,-1.11640822887,-162.815063477,0,0,0,0,0,0,0,0,0,5,6,0
0,0,92263881,37.5773850452,126.897649783,15.7307434082,2.29526901245,-1.12328374386,-163.017440796,0,0,0,0,0,0,0,0,0,5,6,0
0,0,92273819,37.5773847993,126.897649888,15.7304840088,2.27744984627,-1.13090407848,-163.216369629,0,0,0,0,0,0,0,0,0,5,6,0
0,0,92284049,37.5773845316,126.897649971,15.7290906906,2.25533366203,-1.14207673073,-163.417068481,0,0,0,0,0,0,0,0,0,5,6,0
0,0,92293875,37.5773842846,126.897650071,15.7287406921,2.23052477837,-1.15324950218,-163.614578247,0,0,0,0,0,0,0,0,0,5,6,0
0,0,92303835,37.5773840381,126.897650173,15.7284231186,2.20938253403,-1.16470861435,-163.81350708,0,0,0,0,0,0,0,0,0,5,6,0
0,0,92313948,37.5773837703,126.897650253,15.7270088196,2.18829774857,-1.17582404613,-164.011123657,0,0,0,0,0,0,0,0,0,5,6,0
0,0,92324828,37.5773835221,126.897650348,15.7265701294,2.16068124771,-1.18602263927,-164.210845947,0,0,0,0,0,0,0,0,0,5,6,0
0,0,92333737,37.577383275,126.897650447,15.7262086868,2.13650226593,-1.194617033,-164.410873413,0,0,0,0,0,0,0,0,0,5,6,0
0,0,92344788,37.5773830069,126.897650523,15.7247447968,2.11558938026,-1.20825338364,-164.607452393,0,0,0,0,0,0,0,0,0,5,6,0
0,0,92353963,37.5773827578,126.897650615,15.7241926193,2.09599423409,-1.21684777737,-164.805114746,0,0,0,0,0,0,0,0,0,5,6,0
0,0,92363991,37.5773825096,126.897650709,15.723733902,2.07972216606,-1.2252702713,-165.000564575,0,0,0,0,0,0,0,0,0,5,6,0
0,0,92373790,37.5773822415,126.897650767,15.7218208313,2.06895065308,-1.23776078224,-165.195877075,0,0,0,0,0,0,0,0,0,5,6,0
0,0,92384038,37.5773819918,126.897650854,15.7211809158,2.05382442474,-1.24549567699,-165.393722534,0,0,0,0,0,0,0,0,0,5,6,0
0,0,92393753,37.5773817424,126.897650944,15.7206125259,2.04305291176,-1.25340247154,-165.585769653,0,0,0,0,0,0,0,0,0,5,6,0
0,0,92404545,37.5773814743,126.897650998,15.7186565399,2.03600549698,-1.25947582722,-165.775482178,0,0,0,0,0,0,0,0,0,5,6,0
0,0,92413880,37.5773812238,126.89765108,15.7179489136,2.02500462532,-1.26629400253,-165.967880249,0,0,0,0,0,0,0,0,0,5,6,0
0,0,92423737,37.5773809742,126.897651167,15.7173204422,2.02924466133,-1.27357053757,-166.160858154,0,0,0,0,0,0,0,0,0,5,6,0
0,0,92433770,37.5773807064,126.897651218,15.7153863907,2.03268241882,-1.2767791748,-166.352279663,0,0,0,0,0,0,0,0,0,5,6,0
0,0,92444101,37.5773804559,126.897651296,15.7146625519,2.02901554108,-1.2842849493,-166.54548645,0,0,0,0,0,0,0,0,0,5,6,0
0,0,92454178,37.5773802052,126.897651378,15.7139539719,2.03090620041,-1.28760802746,-166.74005127,0,0,0,0,0,0,0,0,0,5,6,0
0,0,92464217,37.577379941,126.897651426,15.7123804092,2.03176569939,-1.29293656349,-166.931427002,0,0,0,0,0,0,0,0,0,5,6,0
0,0,92474036,37.5773796897,126.8976515,15.7116689682,2.03136467934,-1.29540026188,-167.124801636,0,0,0,0,0,0,0,0,0,5,6,0
0,0,92484158,37.5773794391,126.897651579,15.7109498978,2.03314065933,-1.29941093922,-167.320007324,0,0,0,0,0,0,0,0,0,5,6,0
0,0,92497892,37.5773791749,126.897651624,15.7094068527,2.03508877754,-1.30554163456,-167.512634277,0,0,0,0,0,0,0,0,0,5,6,0
0,0,92504033,37.5773789236,126.897651696,15.7086658478,2.0322239399,-1.30852103233,-167.706573486,0,0,0,0,0,0,0,0,0,5,6,0
0,0,92514214,37.5773786722,126.89765177,15.7079467773,2.03503155708,-1.31144309044,-167.902130127,0,0,0,0,0,0,0,0,0,5,6,0
0,0,92534759,37.5773781566,126.897651881,15.7056446075,2.03308343887,-1.31327652931,-168.292205811,0,0,0,0,0,0,0,0,0,5,6,0
0,0,92543872,37.5773779052,126.897651952,15.704908371,2.03273963928,-1.3147662878,-168.488494873,0,0,0,0,0,0,0,0,0,5,6,0
0,0,92553975,37.5773776416,126.897651993,15.7033967972,2.03749513626,-1.31654238701,-168.686798096,0,0,0,0,0,0,0,0,0,5,6,0
0,0,92563914,37.5773773898,126.897652059,15.7026443481,2.03371357918,-1.31041181087,-168.88269043,0,0,0,0,0,0,0,0,0,5,6,0
0,0,92573911,37.577377138,126.897652126,15.7018527985,2.03199481964,-1.31018257141,-169.081741333,0,0,0,0,0,0,0,0,0,5,6,0
0,0,92584830,37.5773768746,126.897652166,15.7003850937,2.02758312225,-1.30685949326,-169.277633667,0,0,0,0,0,0,0,0,0,5,6,0
0,0,92593740,37.577376622,126.897652228,15.6996212006,2.02672362328,-1.30565619469,-169.479248047,0,0,0,0,0,0,0,0,0,5,6,0
0,0,92604667,37.57737637,126.897652293,15.6988792419,2.0225982666,-1.30307793617,-169.679733276,0,0,0,0,0,0,0,0,0,5,6,0
0,0,92613842,37.5773760924,126.897652333,15.6974172592,2.02557778358,-1.29923903942,-169.878890991,0,0,0,0,0,0,0,0,0,5,6,0
0,0,92623952,37.5773758395,126.897652393,15.6967277527,2.02385878563,-1.2956867218,-170.077423096,0,0,0,0,0,0,0,0,0,5,6,0
0,0,92634964,37.5773755868,126.897652454,15.695977211,2.01772809029,-1.29230630398,-170.279281616,0,0,0,0,0,0,0,0,0,5,6,0
0,0,92643827,37.5773753093,126.897652488,15.6947231293,2.0139465332,-1.29184794426,-170.477798462,0,0,0,0,0,0,0,0,0,5,6,0
